Ville;adresse_full;Latitude;Longitude;participants_syndicats;source_syndicats;participants_police;participants_presse;source_presse;participants_occurrence;description_libre;lien
Paris;Paris France;48.856614;2.3522219;400000;CGT;57000;;;;;ok
Marseille;Marseille France;43.296482;5.36978;170000;CGT;10000;;;;;ok
Toulouse;Toulouse France;43.604652;1.444209;90000;CGT;15000;;;;;https://actu.fr/occitanie/toulouse_31555/greve-du-6-avril-blocages-perturbations-et-manif-suivez-la-situation-a-toulouse_58701776.html
Bordeaux;Bordeaux France;44.837789;-0.57918;60000;intersyndicale;10000;;;;;https://www.leprogres.fr/politique/2023/04/06/retraites-quelle-mobilisation-ce-jeudi-apres-l-echec-de-la-rencontre-avec-borne
Nantes;Nantes France;47.218371;-1.553621;;;15000;18000;Ouest-France;;;https://www.ouest-france.fr/economie/retraites/direct-greve-du-6-avril-manifestations-blocages-et-etat-du-trafic-a-nantes-saint-nazaire-b32199c2-d3bb-11ed-8669-5c45fd74f594
Lille;Lille France;50.62925;3.057256;;;;5390;Voix du Nord;;;https://www.lavoixdunord.fr/1312672/article/2023-04-06/direct-retraites-11e-journee-de-mobilisation-les-discussions-entre-les-syndicats
Grenoble;Grenoble France;45.188529;5.724524;26000;intersyndicale;10000;;;;;https://france3-regions.francetvinfo.fr/auvergne-rhone-alpes/isere/grenoble/direct-greve-du-6-avril-a-grenoble-suivez-la-manifestation-contre-la-reforme-des-retraites-2748498.html
Lyon;Lyon France;45.764043;4.835659;32000;intersyndicale;13000;;;;;https://www.leprogres.fr/politique/2023/04/06/retraites-quelle-mobilisation-ce-jeudi-apres-l-echec-de-la-rencontre-avec-borne
Clermont-Ferrand;Clermont-Ferrand France;45.777222;3.087025;15000;intersyndicale;7500;;;;;https://france3-regions.francetvinfo.fr/auvergne-rhone-alpes/puy-de-dome/clermont-ferrand/greve-et-manifestation-du-6-avril-a-clermont-ferrand-contre-la-reforme-des-retraites-il-y-a-une-colere-generale-2748242.html
Le Havre;Le Havre France;49.49437;0.107929;;;5500;;;;;https://www.paris-normandie.fr/id403217/article/2023-04-06/direct-manifestations-du-6-avril-blocages-au-havre-rond-point-bloque-fecamp
Caen;Caen France;49.182863;-0.370679;24000;intersyndicale;;;;;Selon les syndicats, entre 23 et 25 000 personnes manifestent à Caen;https://actu.fr/normandie/caen_14118/greve-du-6-avril-a-caen-suivez-les-blocages-et-la-manifestation_58714974.html
Limoges;Limoges France;45.833619;1.261105;25000;intersyndicale;3800;;;;;https://www.francebleu.fr/infos/economie-social/manifestations-contre-la-reforme-des-retraites-dans-le-limousin-suivez-notre-direct-1005135
Montpellier;Montpellier France;43.610769;3.876716;12000;CGT;8000;;;;;https://france3-regions.francetvinfo.fr/occitanie/herault/montpellier/direct-greve-du-6-avril-contre-la-reforme-des-retraites-des-blocages-a-montpellier-et-nimes-en-attendant-les-manifestations-2748210.html
Brest;Brest France;48.390394;-4.486076;17000;intersyndicale;10000;;;;La police a précisé que les manifestants étaient <i>« moins de 10 000 »</i>;https://actu.fr/bretagne/brest_29019/greve-du-6-avril-a-brest-des-blocages-de-bonne-heure-ce-matin-suivez-la-manifestation_58722967.html
Nancy;Nancy France;48.692054;6.184417;;;4000;;;;;https://www.estrepublicain.fr/social/2023/04/06/reforme-des-retraites-en-meurthe-et-moselle-et-en-meuse-suivez-avec-nous-cette-nouvelle-journee-d-action
Nice;Nice France;43.7101728;7.2619532;20000;;2300;;;;;ok
Rennes;Rennes France;48.117266;-1.6777926;20000;Force ouvrière;8500;;Ouest France;;;https://www.ouest-france.fr/economie/retraites/direct-reforme-des-retraites-11e-journee-de-mobilisation-les-syndicats-maintiennent-la-pression-3623f982-d42f-11ed-8b00-1728a73f4c85
Saint-Etienne;Saint-Etienne France;45.439695;4.3871779;15000;CGT;4200;5550;Le Progrès;;;https://www.leprogres.fr/social/2023/04/06/reforme-des-retraites-c-est-parti-pour-la-11e-mobilisation-a-saint-etienne-et-roanne
Orléans;Orléans France;47.902964;1.909251;11000;CGT;3600;;;;;https://www.francebleu.fr/infos/economie-social/manifestation-contre-la-reforme-des-retraites-la-mobilisation-en-baisse-a-orleans-2347759
Strasbourg;Strasbourg France;48.5734053;7.7521113;12000;;5600;;Dernières Nouvelles d'Alsace;;;https://www.dna.fr/social/2023/04/06/retraites-manifestation-a-strasbourg-a-partir-de-14h#bd64acec-9974-426e-b79f-40bfde637c9f
Toulon;Toulon France;43.124228;5.928;15000;intersyndicale;4000;;;;;https://www.24liveblog.com/live/UAdL1
Avignon;Avignon France;43.949317;4.805528;20000;CGT;3200;;;;;https://www.francebleu.fr/infos/societe/photos-reforme-des-retraites-20-000-manifestants-a-avignon-selon-les-syndicats-6773695
Nîmes;Nîmes France;43.836699;4.360054;20000;;3000;;;;;https://www.midilibre.fr/2023/04/06/montpellier-11e-mobilisation-contre-la-reforme-des-retraites-la-faculte-des-sciences-bloquee-11115780.php
Rodez;Rodez France;44.349389;2.575986;7500;intersyndicale;;;;;;https://www.ladepeche.fr/2023/04/06/direct-reforme-des-retraites-manifestations-blocages-suivez-la-11e-journee-de-mobilisation-contre-le-projet-de-loi-11114000.php
Montauban;Montauban France;44.0221252;1.3529599;5000;CGT;;;;;;https://www.ladepeche.fr/2023/04/06/direct-reforme-des-retraites-manifestations-blocages-suivez-la-11e-journee-de-mobilisation-contre-le-projet-de-loi-11114000.php
Pau;Pau France;43.2951;-0.370797;13000;intersyndicale;7200;;;;;https://www.larepubliquedespyrenees.fr/societe/greve-et-manifestations/pau-nouvelle-manifestation-pour-la-11e-journee-d-action-contre-la-reforme-des-retraites-14704108.php
Dijon;Dijon France;47.322047;5.04148;12000;;4500;;;;;https://www.bienpublic.com/social/2023/04/06/beaune-dijon-montbard-suivez-la-onzieme-journee-de-manifestations-en-cote-d-or
Bayonne;Bayonne France;43.492949;-1.474841;15000;intersyndicale;4800;;;;;https://www.sudouest.fr/pyrenees-atlantiques/bayonne/greve-du-6-avril-a-bayonne-15-000-manifestants-reunis-d-apres-l-intersyndicale-14704911.php
Tarbes;Tarbes France;43.232951;0.078082;10000;intersyndicale;4000;;;;;https://www.ladepeche.fr/2023/04/06/direct-reforme-des-retraites-manifestations-blocages-suivez-la-11e-journee-de-mobilisation-contre-le-projet-de-loi-11114000.php
Rouen;Rouen France;49.443232;1.099971;14000;CGT;7900;;;;;https://www.paris-normandie.fr/id403217/article/2023-04-06/direct-manifestations-du-6-avril-blocages-au-havre-rond-point-bloque-fecamp
Albi;Albi France;43.9250853;2.1486413;;;;8000;La Dépêche;;;https://www.ladepeche.fr/2023/04/06/direct-reforme-des-retraites-manifestations-blocages-suivez-la-11e-journee-de-mobilisation-contre-le-projet-de-loi-11114000.php
Perpignan;Perpignan France;42.6886591;2.8948332;15000;intersyndicale;4700;;;;;https://actu.fr/societe/greve-du-6-avril-blocages-manifestations-le-point-sur-la-situation-en-occitanie_58722076.html
Valence;Valence France;44.933393;4.89236;15000;CGT;4200;;;;;https://www.francebleu.fr/infos/economie-social/en-direct-suivez-la-11e-journee-de-mobilisation-retraites-en-drome-et-en-ardeche-6958500
Poitiers;Poitiers France;46.580224;0.340375;8000;CGT;4000;;;;;https://www.lanouvellerepublique.fr/poitiers/poitiers-onzieme-manifestation-contre-la-reforme-des-retraites-ce-jeudi-6-avril-2023-direct?queryId%5Bquery1%5D=57cd2206459a452f008b4594&queryId%5Bquery2%5D=57c95b34479a452f008b459d&page=2&pageId=57da5cf9459a4552008b4b2b
Amiens;Amiens France;49.894067;2.295753;;;;;;;;
Le Mans;Le Mans France;48.00611;0.199556;10000;;4200;;;;;https://actu.fr/pays-de-la-loire/le-mans_72181/greve-du-6-avril-blocages-manifestations-suivez-la-situation-en-sarthe_58721156.html
La Roche-sur-Yon;La Roche-sur-Yon France;46.670511;-1.426442;6000;;3100;;;;;https://www.ouest-france.fr/economie/retraites/direct-greve-du-6-avril-manifestations-perturbations-suivez-la-mobilisation-en-vendee-85b31358-d393-11ed-99f5-cf54f2f7aae2
Foix;Foix France;42.964127;1.605232;11000;;2500;;;;;https://www.ladepeche.fr/2023/04/06/direct-reforme-des-retraites-manifestations-blocages-suivez-la-11e-journee-de-mobilisation-contre-le-projet-de-loi-11114000.php
Béziers;Béziers France;43.344233;3.215795;;;2000;;;;;https://www.francebleu.fr/infos/economie-social/photos-pres-de-12-000-manifestants-dans-les-rues-de-montpellier-contre-la-reforme-des-retraites-2591280
Brive;Brive France;45.159555;1.533937;;;;;;;;
Angers;Angers France;47.4711616;-0.5518257;7000;;;;;;;https://www.ouest-france.fr/economie/retraites/direct-greve-du-6-avril-les-manifestations-et-blocages-a-angers-cholet-saumur-et-segre-63754260-d3ad-11ed-99f5-cf54f2f7aae2
Chambéry;Chambéry France;45.564601;5.917781;;;;;;;;
Angoulême;Angoulême France;45.648377;0.1562369;8000;;3000;;Charente Libre;;;https://www.charentelibre.fr/charente/greve-round-11-occupation-des-voies-a-la-gare-d-angouleme-et-blocage-sur-la-zone-euratlantic-de-fleac-14703116.php
Le Puy-en-Velay;Le Puy-en-Velay France;45.042768;3.882936;7000;;2400;;La Montagne;;;https://www.lamontagne.fr/clermont-ferrand-63000/actualites/gouvernement-inflexible-contre-intersyndicale-determinee-suivez-la-journee-de-mobilisation-contre-la-reforme-des-retraites_14289594/
Périgueux;Périgueux France;45.184029;0.7211149;4500;;2700;;Sud Ouest;;;https://www.sudouest.fr/economie/social/greve/direct-greve-du-6-avril-suivez-les-temps-forts-de-la-journee-14703188.php
La Rochelle;La Rochelle France;46.160329;-1.151139;6000;;2200;;;;;https://www.sudouest.fr/economie/social/greve/direct-greve-du-6-avril-en-charente-maritime-suivez-les-temps-forts-de-la-mobilisation-14704022.php
Metz;Metz France;49.1193089;6.1757156;9000;;4800;;;;;https://www.republicain-lorrain.fr/social/2023/04/06/reforme-des-retraites-nouvelle-journee-de-mobilisation-a-metz-et-a-longwy
Saint-Nazaire;Saint-Nazaire France;47.2734979;-2.213848;10000;intersyndicale;;;;;;https://www.francebleu.fr/infos/economie-social/reforme-des-retraites-11-journee-de-manifestation-en-loire-atlantique-et-vendee-5289418
Beauvais;Beauvais France;49.4295387;2.0807123;5500;;2500;;;;;https://actu.fr/societe/greve-du-6-avril-piquets-de-greve-manifestations-blocages-suivez-notre-direct_58714927.html
Tours;Tours France;47.394144;0.68484;8000;;4300;;;;;ok
Lorient;Lorient France;47.7482524;-3.3702449;10000;intersyndicale;5200;;;;;https://www.ouest-france.fr/economie/retraites/direct-greve-du-6-avril-manifestations-blocages-la-situation-a-lorient-vannes-pontivy-ac7c8694-d236-11ed-96ad-1942048996da
Quimper;Quimper France;47.997542;-4.097899;;;;5000;;;;https://www.letelegramme.fr/finistere/quimper/a-quimper-la-zone-de-kerdroniou-toujours-bloquee-par-des-manifestants-direct-06-04-2023-13312617.php
Besançon;Besançon France;47.237829;6.0240539;5500;;4000;;;;;https://www.estrepublicain.fr/social/2023/04/06/reforme-des-retraites-suivez-l-acte-xi-de-la-mobilisation-en-franche-comte
Charleville-Mézières;Charleville-Mézières France;49.762085;4.726096;5300;;;;;;;https://www.lardennais.fr/id472717/article/2023-04-06/reforme-des-retraites-les-manifestants-prets-pour-le-depart-charleville-mezieres
Blois;Blois, France;47.5860921;1.3359475;4500;;3000;;;;;https://www.lanouvellerepublique.fr/blois/direct-reforme-des-retraites-11e-journee-de-mobilisation-en-loir-et-cher
Saint-Brieuc;Saint-Brieuc France;48.51418;-2.765835;8000;;;4000;;;;https://www.letelegramme.fr/cotes-darmor/saint-brieuc/reforme-des-retraites-nouvelle-action-des-lyceens-ce-jeudi-6-avril-a-saint-brieuc-06-04-2023-13312623.php
Châteauroux;Châteauroux France;46.811434;1.686779;3500;;2400;;La nouvelle République;;;https://www.lanouvellerepublique.fr/a-la-une/direct-onzieme-journee-de-mobilisation-contre-la-reforme-des-retraites?queryId%5Bquery1%5D=57cd2206459a452f008b4594&queryId%5Bquery2%5D=57c95b34479a452f008b459d&page=0&pageId=57da5ce0459a4552008b4567
Niort;Niort France;46.323716;-0.464777;;;;2500;Ouest France;;;https://www.ouest-france.fr/economie/retraites/direct-greve-du-6-avril-sur-les-retraites-les-manifestations-a-thouars-niort-bressuire-8243f456-d37c-11ed-8669-5c45fd74f594
Lannion;Lannion France;48.732084;-3.459144;6500;;3500;3750;Le Télégramme;;;https://www.letelegramme.fr/cotes-darmor/lannion/manif-contre-la-loi-retraites-a-lannion-les-jeunes-descendent-en-ville-en-direct-06-04-2023-13312795.php
Boulogne-sur-Mer;Boulogne-sur-Mer France;50.725231;1.613334;2000;intersyndicale;1100;;La Voix du Nord;;;https://www.lavoixdunord.fr/1312672/article/2023-04-06/direct-retraites-11e-journee-de-mobilisation-les-discussions-entre-les-syndicats
Evreux;Evreux France;49.027013;1.151361;;;;1300;Paris Normandie;;;https://www.paris-normandie.fr/id403368/article/2023-04-06/video-evreux-environ-1-300-personnes-ont-manifeste-contre-la-reforme-des
Morlaix;Morlaix France;48.577613;-3.828228;;;2400;2500;Le Télégramme;;;https://www.letelegramme.fr/finistere/morlaix/reforme-des-retraites-2-500-manifestants-dans-les-rues-de-morlaix-06-04-2023-13312851.php
Laval;Laval France;48.0785146;-0.7669906;6500;intersyndicale;2800;;;;;https://www.ouest-france.fr/economie/retraites/direct-greve-du-6-avril-manifestation-lycees-bloques-la-situation-a-laval-ce-matin-329c5cac-d3c4-11ed-99f5-cf54f2f7aae2
Dunkerque;Dunkerque France;51.0343684;2.3767763;;;;2500;La Voix du Nord;;;https://www.lavoixdunord.fr/1312895/article/2023-04-06/dunkerque-les-manifestants-opposes-la-reforme-des-retraites-ont-debute-leur
Mulhouse;Mulhouse France;47.750839;7.335888;3000;;2400;;;;;https://www.dna.fr/social/2023/04/06/retraites-manifestation-a-strasbourg-a-partir-de-14h#bd64acec-9974-426e-b79f-40bfde637c9f
Epinal;Epinal France;48.172402;6.449403;4000;intersyndicale;;;;;;https://epinalinfos.fr/2023/04/reforme-retraites-nouvelle-manifestation-suivie-a-epinal/
Annonay;Annonay France;45.239403;4.667349;;;;;;;;
Montluçon;Montluçon France;46.3415466;2.6019912;;;;2500;;;;https://www.lamontagne.fr/clermont-ferrand-63000/actualites/gouvernement-inflexible-contre-intersyndicale-determinee-suivez-la-journee-de-mobilisation-contre-la-reforme-des-retraites_14289594/
Bourges;Bourges France;47.081012;2.398782;6000;intersyndicale;2000;;;;;https://www.leberry.fr/bourges-18000/actualites/reforme-des-retraites-suivez-en-direct-la-onzieme-journee-de-mobilisation_14289961/
Bourgoin-Jallieu;Bourgoin-Jallieu France;45.597108;5.27212;2200;;1300;;;;;https://www.ledauphine.com/social/2023/04/06/social-greve-et-manifestations-en-isere-suivez-en-direct-cette-onzieme-journee-de-mobilisation
Auch;Auch France;43.64638;0.586709;4000;intersyndicale;1800;;;;;https://www.ladepeche.fr/2023/04/06/direct-reforme-des-retraites-manifestations-blocages-suivez-la-11e-journee-de-mobilisation-contre-le-projet-de-loi-11114000.php
Castres;Castres France;43.606214;2.241295;5000;;3000;;;;;https://www.ladepeche.fr/2023/04/06/direct-reforme-des-retraites-manifestations-blocages-suivez-la-11e-journee-de-mobilisation-contre-le-projet-de-loi-11114000.php
Belfort;Belfort France;47.639674;6.863849;4000;intersyndicale;2100;;;;;https://www.francebleu.fr/infos/societe/la-mobilisation-contre-la-reforme-des-retraites-ne-faiblit-pas-a-belfort-3729910
Vannes;Vannes France;47.658236;-2.760847;6000;CGT;3100;;;;;https://www.letelegramme.fr/morbihan/vannes/direct-a-vannes-les-eleves-ont-bloque-le-lycee-lesage-06-04-2023-13312643.php
Narbonne;Narbonne France;43.184277;3.003078;3000;;2500;;;;;
Reims;Reims France;49.258329;4.031696;;;;3000;France 3;;;https://france3-regions.francetvinfo.fr/grand-est/marne/reims/reforme-des-retraites-pres-de-3-000-personnes-a-reims-pour-la-11eme-journee-de-mobilisation-2748406.html
Carcassonne;Carcassonne France;43.2132151;2.3517703;2500;intersyndicale;2000;;L'Indépendant;;;https://www.lindependant.fr/2023/04/06/suivez-en-direct-la-11e-apres-midi-de-mobilisation-dans-laude-contre-la-reforme-des-retraites-11116304.php
Montélimar;Montélimar France;44.556944;4.749496;4000;CGT;1500;;;;;
Annecy;Annecy France;45.899247;6.129384;;;2000;;;;;https://www.francebleu.fr/infos/societe/reforme-des-retraites-blocage-des-camions-poubelles-a-chambery-7181170
Agen;Agen France;44.203142;0.616363;2500;;1900;;;;;https://www.ladepeche.fr/2023/04/06/direct-reforme-des-retraites-manifestations-blocages-suivez-la-11e-journee-de-mobilisation-contre-le-projet-de-loi-11114000.php
Arles;Arles France;43.676647;4.6277769;;;1500;;La Provence;;;https://www.laprovence.com/article/region/128345087416415/direct-laprovence-direct-reforme-des-retraites-cinq-rendez-vous-en-provence-et-des-transports-perturbes-pour-cette-11e-mobilisation
Saintes;Saintes France;45.744175;-0.633389;4500;;2500;;Sud Ouest;;;https://www.sudouest.fr/economie/social/greve/direct-greve-du-6-avril-en-charente-maritime-suivez-les-temps-forts-de-la-mobilisation-14704022.php
Mâcon;Mâcon France;46.3068839;4.828731;3000;intersyndicale;1200;;;;;https://www.lejsl.com/societe/2023/04/06/suivez-le-11e-tour-des-manifestations-en-saone-et-loire
Sète;Sète France;43.4078758;3.7008219;3000;CGT;2300;;;;;https://actu.fr/societe/greve-du-6-avril-blocages-manifestations-le-point-sur-la-situation-en-occitanie_58722076.html / https://www.francebleu.fr/infos/economie-social/photos-pres-de-12-000-manifestants-dans-les-rues-de-montpellier-contre-la-reforme-des-retraites-2591280
Moulins;Moulins France;46.568059;3.334417;2000;intersyndicale;1200;;;;;https://www.lamontagne.fr/moulins-03000/actualites/les-manifestants-contre-la-reforme-des-retraites-comptent-ne-rien-lache-a-moulins_14290526/
Mont-de-Marsan;Mont-de-Marsan France;43.893485;-0.499782;;;;;;;;
Arras;Arras France;50.291002;2.777535;;;;2000;La Voix du Nord;;;https://www.lavoixdunord.fr/1312801/article/2023-04-06/reforme-des-retraites-environ-2000-manifestants-dans-les-rues-d-arras-ce-jeudi
Aubenas;Aubenas France;44.620909;4.389863;;;2000;;;;;https://www.ledauphine.com/social/2023/04/06/greve-et-manifestations-en-drome-ardeche-operation-peage-gratuit-sur-l-a7-a-valence
Gap;Gap France;44.566667;6.083333;3000;;1000;;;;;https://www.ledauphine.com/social/2023/04/06/greves-et-manifs-dans-les-alpes-du-sud-quatre-rassemblements-a-gap-briancon-barcelonnette-et-digne-les-bains
Vichy;Vichy France;46.131859;3.425488;2000;intersyndicale;1200;;;;;https://www.lamontagne.fr/clermont-ferrand-63000/actualites/gouvernement-inflexible-contre-intersyndicale-determinee-suivez-la-journee-de-mobilisation-contre-la-reforme-des-retraites_14289594/
Draguignan;Draguignan France;43.5377269;6.464993;2000;;1000;;;;;https://www.24liveblog.com/live/UAdL1
Lons-le-Saunier;Lons-le-Saunier France;46.671361;5.550796;2000;;600;;;;;https://www.leprogres.fr/social/2023/04/06/2000-manifestants-a-lons-le-saunier-contre-la-reforme-des-retraites-la-mobilisation-se-maintient
Vienne;Vienne France;45.524875;4.872931;;;1300;;;;;https://www.ledauphine.com/social/2023/04/06/social-greve-et-manifestations-en-isere-suivez-en-direct-cette-onzieme-journee-de-mobilisation
Dinan;Dinan France;48.454366;-2.047327;;;;;;;;
Troyes;Troyes France;48.2924465;4.041115;2000;;1700;;;;;https://www.lest-eclair.fr/id472720/article/2023-04-06/direct-mobilisation-contre-la-reforme-des-retraites-troyes-et-romilly-les#
Guéret;Guéret France;46.169599;1.871452;2500;;1900;;La Montagne;;;https://www.lamontagne.fr/clermont-ferrand-63000/actualites/gouvernement-inflexible-contre-intersyndicale-determinee-suivez-la-journee-de-mobilisation-contre-la-reforme-des-retraites_14289594/
Montbéliard;Montbéliard France;47.510356;6.798466;2500;;2300;;;;;https://www.estrepublicain.fr/social/2023/04/06/reforme-des-retraites-suivez-l-acte-xi-de-la-mobilisation-en-franche-comte
Tulle;Tulle France;45.26565;1.771697;;;;1300;La Montagne;;;https://www.lamontagne.fr/clermont-ferrand-63000/actualites/gouvernement-inflexible-contre-intersyndicale-determinee-suivez-la-journee-de-mobilisation-contre-la-reforme-des-retraites_14289594/
Albertville;Albertville France;45.675535;6.392726;;;;;;;;
Vierzon;Vierzon France;47.221438;2.069791;2200;;1700;;;;;https://www.leberry.fr/bourges-18000/actualites/reforme-des-retraites-suivez-en-direct-la-onzieme-journee-de-mobilisation_14289961/
Cholet;Cholet France;47.059407;-0.879787;;;;1900;Le Courrier de l'Ouest;;;
Aurillac;Aurillac France;44.930953;2.444997;;;1250;;;;;https://www.lamontagne.fr/clermont-ferrand-63000/actualites/gouvernement-inflexible-contre-intersyndicale-determinee-suivez-la-journee-de-mobilisation-contre-la-reforme-des-retraites_14289594/
Saint-Gaudens;Saint-Gaudens France;43.106895;0.7237629999999999;2500;CGT;;1200;La Dépêche;;;https://www.ladepeche.fr/2023/04/06/reforme-des-retraites-environ-1200-manifestants-a-saint-gaudens-11116856.php
Vendôme;Vendôme France;47.792551;1.065343;1500;intersyndicale;1200;;;;;https://www.lanouvellerepublique.fr/vendome/retraites-les-manifestants-ne-lacheront-pas-a-vendome-et-romorantin
Mende;Mende France;44.517611;3.501873;;;;;;;;
Carhaix;Carhaix France;48.275584;-3.574188;1400;CGT;900;;Ouest France;;;https://www.ouest-france.fr/economie/retraites/direct-reforme-des-retraites-11e-journee-de-mobilisation-les-syndicats-maintiennent-la-pression-3623f982-d42f-11ed-8b00-1728a73f4c85
Epernay;Epernay France;49.043411;3.956242;1200;intersyndicale;1200;;;;;https://www.lunion.fr/id472573/article/2023-04-06/contre-la-reforme-des-retraites-1-200-manifestants-epernay
Privas;Privas France;44.735269;4.599039;;;1000;;;;;https://www.francebleu.fr/infos/economie-social/en-direct-suivez-la-11e-journee-de-mobilisation-retraites-en-drome-et-en-ardeche-6958500
Alençon;Alençon France;48.432856;0.091266;1500;;;;;;;https://actu.fr/normandie/alencon_61001/acte-11-contre-la-reforme-des-retraites-1-500-manifestants-a-alencon_58731166.html
Saint-Lô;Saint-Lô France;49.1154686;-1.0828136;;;;825;Ouest-France;;;https://www.ouest-france.fr/economie/retraites/direct-greve-du-6-avril-barrages-filtrants-a-cherbourg-six-corteges-prevus-dans-la-manche-7d2477e0-d37f-11ed-8669-5c45fd74f594
Guingamp;Guingamp France;48.561864;-3.151869;;;;900;Ouest-France;;;https://www.ouest-france.fr/economie/retraites/video-reforme-des-retraites-entre-800-et-1-000-personnes-manifestent-a-guingamp-891c07c3-30db-44b1-8f44-c7393d086ce0
Coutances;Coutances France;49.047808;-1.4452609;;;;750;Ouest-France;;;https://www.ouest-france.fr/economie/retraites/direct-greve-du-6-avril-barrages-filtrants-a-cherbourg-six-corteges-prevus-dans-la-manche-7d2477e0-d37f-11ed-8669-5c45fd74f594
Abbeville;Abbeville France;50.105467;1.836833;;;;1000;France 3;;;https://france3-regions.francetvinfo.fr/hauts-de-france/nord-0/reforme-des-retraites-blocages-des-routes-et-des-lycees-a-valenciennes-et-a-lille-suivez-la-11e-journee-de-mobilisation-2748302.html
Châlons-en-Champagne;Châlons-en-Champagne France;48.956682;4.363073;;;;;;;;
Fontenay-le-Comte;Fontenay-le-Comte France;46.465972;-0.8065;;;;;;;;
Argentan;Argentan France;48.744001;-0.016566;;;;;;;;
Saint-Jean-de-Maurienne;Saint-Jean-de-Maurienne France;45.275403;6.344886;;;;;;;;
Bar-le-Duc;Bar-le-Duc France;48.773605;5.158238;;;;;;;;
Beaune;Beaune France;47.0260;4.840004;;;;;;;;
Chalon-sur-Saône;Chalon-sur-Saône France;46.780764;4.853947;4000;intersyndicale;2200;;;;;https://www.lejsl.com/societe/2023/04/06/suivez-le-11e-tour-des-manifestations-en-saone-et-loire
Cherbourg;Cherbourg France;49.6423;-1.62551;;;4500;6000;Ouest-France;;;https://www.ouest-france.fr/economie/retraites/direct-greve-du-6-avril-barrages-filtrants-a-cherbourg-six-corteges-prevus-dans-la-manche-7d2477e0-d37f-11ed-8669-5c45fd74f594
Quimperlé;Quimperlé France;47.872586;-3.547546;;;;;;;;
Roanne;Roanne France;46.034432;4.072695;6500;syndicats;2600;;;;;https://www.leprogres.fr/social/2023/04/06/reforme-des-retraites-c-est-parti-pour-la-11e-mobilisation-a-saint-etienne-et-roanne
Alès;Alès France;44.127204;4.083352;;;3000;;;;;https://france3-regions.francetvinfo.fr/occitanie/herault/montpellier/direct-greve-du-6-avril-contre-la-reforme-des-retraites-des-blocages-a-montpellier-et-nimes-en-attendant-les-manifestations-2748210.html
Pontivy;Pontivy France;48.066152;-2.967056;2500;intersyndicale;1300;;;;;https://www.ouest-france.fr/economie/retraites/direct-greve-du-6-avril-manifestations-blocages-la-situation-a-lorient-vannes-pontivy-ac7c8694-d236-11ed-96ad-1942048996da
Dieppe;Dieppe France;49.922992;1.077483;;;1500;1800;;;;
Rochefort;Rochefort France;45.936698;-0.961697;;;;1500;Sud Ouest;;;https://www.sudouest.fr/economie/social/greve/direct-greve-du-6-avril-en-charente-maritime-suivez-les-temps-forts-de-la-mobilisation-14704022.php
Saint-Quentin;Saint-Quentin France;49.847066;3.2874;;;;;;;;
Dole;Dole France;47.09534;5.49081;1500;;1350;;;;;https://www.leprogres.fr/social/2023/04/06/reformes-des-retraites-nouvelle-journee-dans-la-rue-a-dole-et-saint-claude
Montargis;Montargis France;47.99729;2.736291;1600;CGT;;;;;;
Sens;Sens France;48.20065;3.28268;;;;1100;L'Yonne républicaine;;;https://www.lyonne.fr/sens-89100/actualites/1-100-personnes-defilent-ce-jeudi-a-sens-contre-la-reforme-des-retraites_14290376/
Châtellerault;Châtellerault France;46.816487;0.548146;;;1300;1450;;;;https://www.centre-presse.fr/article-879477-reforme-des-retraites-mobilisation-en-baisse-a-chatellerault-avec-manifestants.html
Cambrai;Cambrai France;50.173538;3.236633;;;;700;La Voix du Nord;;;https://www.lavoixdunord.fr/1312734/article/2023-04-06/reforme-des-retraites-une-nouvelle-journee-de-mobilisation-cambrai
Saint-Pierre, La Réunion;Saint-Pierre, La Réunion France;-21.3408775;55.4776663;;;;;;;;
Bagnols-sur-Cèze;Bagnols-sur-Cèze France;44.16252;4.620075;;;900;;;;;https://france3-regions.francetvinfo.fr/occitanie/herault/montpellier/direct-greve-du-6-avril-contre-la-reforme-des-retraites-des-blocages-a-montpellier-et-nimes-en-attendant-les-manifestations-2748210.html
Colmar;Colmar, France;48.0793589;7.358512;;;800;;;;;https://www.lalsace.fr/social/2023/04/06/reforme-des-retraites-suivez-la-11e-journee-de-mobilisation-dans-le-haut-rhin
Romorantin;Romorantin France;47.3725911;1.7018261;;;;;;;;
Cannes;Cannes France;43.552847;7.017369;;;;;;;;
Pithiviers;Pithiviers France;48.173423;2.255849;400;;;;;;;
Verdun;Verdun France;49.1598764;5.3844231;;;375;;;;350 à 400 selon la police.;https://www.estrepublicain.fr/social/2023/04/06/reforme-des-retraites-en-meurthe-et-moselle-et-en-meuse-suivez-avec-nous-cette-nouvelle-journee-d-action
Granville;Granville France;48.837579;-1.597302;;;;700;Ouest-France;;;https://www.ouest-france.fr/economie/retraites/direct-greve-du-6-avril-barrages-filtrants-a-cherbourg-six-corteges-prevus-dans-la-manche-7d2477e0-d37f-11ed-8669-5c45fd74f594
Ussel;Ussel France;45.548905;2.313835;;;;;;;;
Valenciennes;Valenciennes France;50.357113;3.518332;;;;2000;La Voix du Nord;;;https://www.lavoixdunord.fr/1312672/article/2023-04-06/direct-retraites-11e-journee-de-mobilisation-les-discussions-entre-les-syndicats
Calais;Calais France;50.95129;1.858686;;;;;;;;
Douai;Douai France;50.367874;3.080602;;;;1500;La Voix du Nord;;;https://www.lavoixdunord.fr/1312671/article/2023-04-06/petite-foret-la-cgt-bloque-l-acces-d-alstom-et-du-centre-de-tri-de-la-poste
Bourg-en-Bresse;Bourg-en-Bresse France;46.204939;5.225621;6750;;2500;3000;;;;https://www.leprogres.fr/social/2023/04/06/reforme-des-retraites-suivez-la-11e-journee-de-mobilisation-dans-l-ain
Ancenis;Ancenis France;47.365464;-1.177491;;;;;;;;
Figeac;Figeac France;44.608288;2.032871;;;;;;;;
Compiègne;Compiègne France;49.417816;2.826145;;;;;;;;
Digne-les-Bains;Digne-les-Bains France;44.092193;6.235976;4000;;2000;;;;;https://www.ledauphine.com/social/2023/04/06/greves-et-manifs-dans-les-alpes-du-sud-quatre-rassemblements-a-gap-briancon-barcelonnette-et-digne-les-bains
Cahors;Cahors France;44.4475229;1.441989;;;1700;;;;;https://www.ladepeche.fr/2023/04/06/direct-reforme-des-retraites-manifestations-blocages-suivez-la-11e-journee-de-mobilisation-contre-le-projet-de-loi-11114000.php
Saint-Malo;Saint-Malo France;48.649337;-2.025674;;;;;;;;
Vesoul;Vesoul France;47.619788;6.15428;;;;;;;;
Lisieux;Lisieux France;49.145922;0.227849;;;;;;;;
Bergerac;Bergerac France;44.853806;0.483392;1500;;1250;;;;;https://www.sudouest.fr/economie/reforme-des-retraites/direct-greve-du-6-avril-en-dordogne-suivez-les-temps-forts-14703249.php
Chateaubriant;Chateaubriant France;47.720948;-1.3762239;;;;;;;;
Laon;Laon France;49.564133;3.61989;;;;;;;;
Fougères;Fougères France;48.3515609;-1.204626;;;;;;;;
Thouars;Thouars France;46.976154;-0.216803;;;;;;;;
Gien;Gien France;47.6374513;2.7371902;850;CGT;;;;;;
Mamoudzou;Mamoudzou France;-12.78064;45.2326964;;;;;;;;
Nevers;Nevers France;46.990896;3.162845;;;;1600;Le Journal du Centre;;;https://www.lejdc.fr/nevers-58000/actualites/vivez-en-direct-avec-nous-la-onzieme-journee-de-mobilisation-contre-la-reforme-des-retraites-a-nevers_14290426/
Auxerre;Auxerre France;47.798202;3.573781;;;;3000;L'Yonne républicaine;;;https://www.lyonne.fr/auxerre-89000/actualites/suivez-en-direct-cette-11eme-journee-de-mobilisation-contre-la-reforme-des-retraites-dans-l-yonne_14289626/
Saint-Denis, La Réunion;Saint-Denis, La Réunion France;-20.8906596;55.4550536;;;;;;;;
Saumur;Saumur France;47.260135;-0.080893;1900;intersyndicale;1900;;;;;https://www.ouest-france.fr/economie/retraites/direct-greve-du-6-avril-les-manifestations-et-blocages-a-angers-cholet-saumur-et-segre-63754260-d3ad-11ed-99f5-cf54f2f7aae2
Saint-Dizier;Saint-Dizier France;48.637692;4.947418;;;;;;;;
Chaumont;Chaumont France;48.113748;5.1392559;;;;;;;;
Langres;Langres France;47.86683;5.334297;;;;190;JHM;;;https://jhm.fr/langres-mobilisation-rendez-vous-au-lycee-des-franchises/
Eu;Eu France;50.04887;1.419597;;;;;;;;
Marmande;Marmande France;44.500484;0.159869;;;;;;;;
Sarlat;Sarlat France;44.890891;1.217292;1200;;850;1060;;;;https://www.sudouest.fr/economie/reforme-des-retraites/direct-greve-du-6-avril-en-dordogne-suivez-les-temps-forts-14703249.php
Vitré;Vitré France;48.124746;-1.21543;;;;;;;;
Aix-en-Provence;Aix-en-Provence France;43.529742;5.447427;;;;;;;;
Basse-Terre, Guadeloupe;Basse-Terre, Guadeloupe France;15.9965719;-61.7317215;;;;;;;;
Fort-de-France, Martinique;Fort-de-France, Martinique France;14.6060576;-61.069884;;;;;;;;
Cayenne, Guyane;Cayenne, Guyane France;4.9379774;-52.3354386;;;;;;;;
Chartres;Chartres France;48.443854;1.489012;;;;1850;L'Echo républicain;;;https://www.lechorepublicain.fr/chartres-28000/actualites/blocage-sur-la-rocade-de-chartres-suivez-en-direct-cette-11e-journee-de-mobilisation-contre-la-reforme-des-retraites_14289980/
Ajaccio;Ajaccio France;41.919229;8.738635;;;;;;;;
Bastia;Bastia France;42.697283;9.450881;;;;300;France 3;;;https://france3-regions.francetvinfo.fr/corse/haute-corse/reforme-des-retraites-onzieme-journee-de-mobilisation-le-courant-coupe-dans-plusieurs-endroits-strategiques-par-des-manifestants-a-bastia-2748474.html
Soissons;Soissons France;49.376636;3.32342;;;;;;;;
Chateau-Thierry;Chateau-Thierry France;49.0459869;3.40262;;;;;;;;
Maubeuge;Maubeuge France;50.280228;3.9674;;;;;;;;
Thouars;Thouars France;46.976154;-0.216803;;;;;;;;
Saint-Omer;Saint-Omer France;50.750115;2.252208;;;;;;;;
Bressuire;Bressuire France;46.84246;-0.492866;;;;;;;;
Ploërmel;Ploërmel France;47.929254;-2.396846;;;700;1500;Ouest France;;;https://www.ouest-france.fr/economie/retraites/direct-greve-du-6-avril-manifestations-blocages-la-situation-a-lorient-vannes-pontivy-ac7c8694-d236-11ed-96ad-1942048996da
Dax;Dax France;43.708608;-1.051945;;;;;;;;
Pont-Audemer;Pont-Audemer France;49.354883;0.5142989;;;;;;;;
Mayenne;Mayenne France;48.303949;-0.618462;;;;;;;;
Le Creusot;Le Creusot France;46.80535099999999;4.4278;;;;;;;;
Montceau-les-Mines;Montceau-les-Mines France;46.67413;4.362979;3000;intersyndicale;1500;;;;;https://www.lejsl.com/societe/2023/04/06/suivez-le-11e-tour-des-manifestations-en-saone-et-loire
Thonon-les-Bains;Thonon-les-Bains France;46.373565;6.477635;;;;;;;;
Montbard;Montbard France;47.624329;4.337495;1200;;;;;;;
La Tour du Pin;La Tour du Pin France;45.564026;5.445327;;;;;;;;
Cluny;Cluny France;46.428968;4.664555;;;;;;;;
Clermont l'Hérault;Clermont l'Hérault France;43.6323087;3.4017356;;;;;;;;